{"businesses": [{"id": "D9A33FM394q99o4QtK5YwA", "alias": "faidleys-seafood-baltimore-3", "name": "Faidleys Seafood", "image_url": "https://s3-media3.fl.yelpcdn.com/bphoto/OTjVDCVS7pGopH6GZcfjBA/o.jpg", "is_closed": false, "url": "https://www.yelp.com/biz/faidleys-seafood-baltimore-3?adjust_creative=KJtcufKUS887p24u6rjVIQ&utm_campaign=yelp_api_v3&utm_medium=api_v3_business_search&utm_source=KJtcufKUS887p24u6rjVIQ", "review_count": 1184, "categories": [{"alias": "seafood", "title": "Seafood"}, {"alias": "beerbar", "title": "Beer Bar"}], "rating": 4.0, "coordinates": {"latitude": 39.291696, "longitude": -76.62224}, "transactions": ["delivery"], "price": "$$", "location": {"address1": "203 N Paca St", "address2": "", "address3": "", "city": "Baltimore", "zip_code": "21201", "country": "US", "state": "MD", "display_address": ["203 N Paca St", "Baltimore, MD 21201"]}, "phone": "+14107274898", "display_phone": "(410) 727-4898", "distance": 1349.560720156645}, {"id": "u65W69AhbjUlvJJBkEhGNQ", "alias": "miss-shirleys-cafe-baltimore-9", "name": "Miss Shirley's Cafe", "image_url": "https://s3-media4.fl.yelpcdn.com/bphoto/9FsOyVsg-MkdHlNR10xnqA/o.jpg", "is_closed": false, "url": "https://www.yelp.com/biz/miss-shirleys-cafe-baltimore-9?adjust_creative=KJtcufKUS887p24u6rjVIQ&utm_campaign=yelp_api_v3&utm_medium=api_v3_business_search&utm_source=KJtcufKUS887p24u6rjVIQ", "review_count": 2919, "categories": [{"alias": "breakfast_brunch", "title": "Breakfast & Brunch"}, {"alias": "tradamerican", "title": "American (Traditional)"}, {"alias": "cafes", "title": "Cafes"}], "rating": 4.0, "coordinates": {"latitude": 39.2870995, "longitude": -76.6053657}, "transactions": ["delivery", "pickup"], "price": "$$", "location": {"address1": "750 E Pratt St", "address2": "", "address3": "", "city": "Baltimore", "zip_code": "21202", "country": "US", "state": "MD", "display_address": ["750 E Pratt St", "Baltimore, MD 21202"]}, "phone": "+14105285373", "display_phone": "(410) 528-5373", "distance": 1028.7364679770458}, {"id": "ieS_5zqxDHcWMCm8BKUYbg", "alias": "thames-street-oyster-house-baltimore", "name": "Thames Street Oyster House", "image_url": "https://s3-media1.fl.yelpcdn.com/bphoto/9hGjo5-sU6Tn7cXdeYalPg/o.jpg", "is_closed": false, "url": "https://www.yelp.com/biz/thames-street-oyster-house-baltimore?adjust_creative=KJtcufKUS887p24u6rjVIQ&utm_campaign=yelp_api_v3&utm_medium=api_v3_business_search&utm_source=KJtcufKUS887p24u6rjVIQ", "review_count": 2729, "categories": [{"alias": "seafood", "title": "Seafood"}, {"alias": "raw_food", "title": "Live/Raw Food"}], "rating": 4.5, "coordinates": {"latitude": 39.28214, "longitude": -76.59162}, "transactions": ["delivery"], "price": "$$$", "location": {"address1": "1728 Thames St", "address2": "", "address3": "", "city": "Baltimore", "zip_code": "21231", "country": "US", "state": "MD", "display_address": ["1728 Thames St", "Baltimore, MD 21231"]}, "phone": "+14434497726", "display_phone": "(443) 449-7726", "distance": 2090.7127924871847}, {"id": "6am8TZAFnvND52MOz-Yctg", "alias": "mamas-on-the-half-shell-baltimore", "name": "Mama's On The Half Shell", "image_url": "https://s3-media2.fl.yelpcdn.com/bphoto/HWY8OFLdgmlZt-5Q6ny4ig/o.jpg", "is_closed": false, "url": "https://www.yelp.com/biz/mamas-on-the-half-shell-baltimore?adjust_creative=KJtcufKUS887p24u6rjVIQ&utm_campaign=yelp_api_v3&utm_medium=api_v3_business_search&utm_source=KJtcufKUS887p24u6rjVIQ", "review_count": 1279, "categories": [{"alias": "bars", "title": "Bars"}, {"alias": "seafood", "title": "Seafood"}, {"alias": "breakfast_brunch", "title": "Breakfast & Brunch"}], "rating": 4.0, "coordinates": {"latitude": 39.27986, "longitude": -76.5752399}, "transactions": ["delivery", "pickup"], "price": "$$", "location": {"address1": "2901 Odonnell St", "address2": "", "address3": "", "city": "Baltimore", "zip_code": "21224", "country": "US", "state": "MD", "display_address": ["2901 Odonnell St", "Baltimore, MD 21224"]}, "phone": "+14102763160", "display_phone": "(410) 276-3160", "distance": 3328.8257980117924}, {"id": "ISn7WyGQaFpsVSRSh0NSqg", "alias": "sal-and-sons-baltimore", "name": "Sal and Sons", "image_url": "https://s3-media3.fl.yelpcdn.com/bphoto/LmVL4jMy5GwApoCk2sTlTQ/o.jpg", "is_closed": false, "url": "https://www.yelp.com/biz/sal-and-sons-baltimore?adjust_creative=KJtcufKUS887p24u6rjVIQ&utm_campaign=yelp_api_v3&utm_medium=api_v3_business_search&utm_source=KJtcufKUS887p24u6rjVIQ", "review_count": 153, "categories": [{"alias": "seafood", "title": "Seafood"}, {"alias": "seafoodmarkets", "title": "Seafood Markets"}], "rating": 4.5, "coordinates": {"latitude": 39.284, "longitude": -76.59337}, "transactions": ["delivery"], "price": "$", "location": {"address1": "1640 Aliceanna St", "address2": "", "address3": "Broadway Market", "city": "Baltimore", "zip_code": "21231", "country": "US", "state": "MD", "display_address": ["1640 Aliceanna St", "Broadway Market", "Baltimore, MD 21231"]}, "phone": "+14106751466", "display_phone": "(410) 675-1466", "distance": 1817.406978089581}, {"id": "UplfpgvI5BfuDjtolDrmsA", "alias": "blackwall-hitch-baltimore", "name": "Blackwall Hitch", "image_url": "https://s3-media3.fl.yelpcdn.com/bphoto/YoB4qYhyi-MM3pz3AxCiKA/o.jpg", "is_closed": false, "url": "https://www.yelp.com/biz/blackwall-hitch-baltimore?adjust_creative=KJtcufKUS887p24u6rjVIQ&utm_campaign=yelp_api_v3&utm_medium=api_v3_business_search&utm_source=KJtcufKUS887p24u6rjVIQ", "review_count": 510, "categories": [{"alias": "newamerican", "title": "American (New)"}, {"alias": "seafood", "title": "Seafood"}, {"alias": "cocktailbars", "title": "Cocktail Bars"}], "rating": 4.0, "coordinates": {"latitude": 39.2871515492791, "longitude": -76.60605301975444}, "transactions": [], "price": "$$", "location": {"address1": "700 E Pratt St", "address2": null, "address3": "", "city": "Baltimore", "zip_code": "21202", "country": "US", "state": "MD", "display_address": ["700 E Pratt St", "Baltimore, MD 21202"]}, "phone": "+14437597176", "display_phone": "(443) 759-7176", "distance": 1013.2755773246936}, {"id": "p_XPpHiZbdOccx2jFUgZJA", "alias": "the-local-oyster-baltimore", "name": "The Local Oyster", "image_url": "https://s3-media3.fl.yelpcdn.com/bphoto/u_33aye99FX8ZM_DtIRDng/o.jpg", "is_closed": false, "url": "https://www.yelp.com/biz/the-local-oyster-baltimore?adjust_creative=KJtcufKUS887p24u6rjVIQ&utm_campaign=yelp_api_v3&utm_medium=api_v3_business_search&utm_source=KJtcufKUS887p24u6rjVIQ", "review_count": 217, "categories": [{"alias": "seafood", "title": "Seafood"}, {"alias": "wine_bars", "title": "Wine Bars"}, {"alias": "beerbar", "title": "Beer Bar"}], "rating": 4.0, "coordinates": {"latitude": 39.2958288, "longitude": -76.6188912}, "transactions": ["delivery"], "price": "$$", "location": {"address1": "520 Park Ave", "address2": null, "address3": "", "city": "Baltimore", "zip_code": "21211", "country": "US", "state": "MD", "display_address": ["520 Park Ave", "Baltimore, MD 21211"]}, "phone": "+18447482537", "display_phone": "(844) 748-2537", "distance": 966.7299411758902}, {"id": "fdo4pqfSYjQyW5_-rElfew", "alias": "faidley-s-seafood-baltimore-2", "name": "Faidley\u2019s Seafood", "image_url": "https://s3-media4.fl.yelpcdn.com/bphoto/7aCi2UOBeoKp8D20h7lKUA/o.jpg", "is_closed": false, "url": "https://www.yelp.com/biz/faidley-s-seafood-baltimore-2?adjust_creative=KJtcufKUS887p24u6rjVIQ&utm_campaign=yelp_api_v3&utm_medium=api_v3_business_search&utm_source=KJtcufKUS887p24u6rjVIQ", "review_count": 39, "categories": [{"alias": "seafoodmarkets", "title": "Seafood Markets"}], "rating": 4.0, "coordinates": {"latitude": 39.2915897, "longitude": -76.6222079}, "transactions": [], "price": "$", "location": {"address1": "203 N Paca St", "address2": "", "address3": "", "city": "Baltimore", "zip_code": "21201", "country": "US", "state": "MD", "display_address": ["203 N Paca St", "Baltimore, MD 21201"]}, "phone": "+14107526461", "display_phone": "(410) 752-6461", "distance": 1342.5131042329115}, {"id": "AjMBJPjnaGIVhBd08gpjvA", "alias": "the-water-street-tavern-and-key-west-patio-bar-baltimore", "name": "The Water Street Tavern & Key West Patio Bar", "image_url": "https://s3-media3.fl.yelpcdn.com/bphoto/dPOyNQ3m45FGAfv9qhFprw/o.jpg", "is_closed": false, "url": "https://www.yelp.com/biz/the-water-street-tavern-and-key-west-patio-bar-baltimore?adjust_creative=KJtcufKUS887p24u6rjVIQ&utm_campaign=yelp_api_v3&utm_medium=api_v3_business_search&utm_source=KJtcufKUS887p24u6rjVIQ", "review_count": 263, "categories": [{"alias": "tradamerican", "title": "American (Traditional)"}, {"alias": "bars", "title": "Bars"}, {"alias": "seafood", "title": "Seafood"}], "rating": 4.0, "coordinates": {"latitude": 39.288553, "longitude": -76.613303}, "transactions": ["delivery"], "price": "$$", "location": {"address1": "102 Water St", "address2": "", "address3": "", "city": "Baltimore", "zip_code": "21202", "country": "US", "state": "MD", "display_address": ["102 Water St", "Baltimore, MD 21202"]}, "phone": "+14106059495", "display_phone": "(410) 605-9495", "distance": 976.8498942690466}, {"id": "1C8QSqc-erkkyAUywh501A", "alias": "angies-seafood-baltimore", "name": "Angie's Seafood", "image_url": "https://s3-media1.fl.yelpcdn.com/bphoto/pqkYsm6ONXVkSlozotFWKA/o.jpg", "is_closed": false, "url": "https://www.yelp.com/biz/angies-seafood-baltimore?adjust_creative=KJtcufKUS887p24u6rjVIQ&utm_campaign=yelp_api_v3&utm_medium=api_v3_business_search&utm_source=KJtcufKUS887p24u6rjVIQ", "review_count": 672, "categories": [{"alias": "seafood", "title": "Seafood"}, {"alias": "soup", "title": "Soup"}, {"alias": "salad", "title": "Salad"}], "rating": 4.0, "coordinates": {"latitude": 39.289207148922245, "longitude": -76.5927557431986}, "transactions": ["delivery", "pickup"], "price": "$$", "location": {"address1": "1727 E Pratt St", "address2": null, "address3": "", "city": "Baltimore", "zip_code": "21231", "country": "US", "state": "MD", "display_address": ["1727 E Pratt St", "Baltimore, MD 21231"]}, "phone": "+14103420917", "display_phone": "(410) 342-0917", "distance": 1499.0834038738199}, {"id": "BhnCaqbJtWrC36eVxlewSw", "alias": "l-p-steamers-baltimore", "name": "L P Steamers", "image_url": "https://s3-media3.fl.yelpcdn.com/bphoto/54nSR-_hLFhvL7Wms3uVFA/o.jpg", "is_closed": false, "url": "https://www.yelp.com/biz/l-p-steamers-baltimore?adjust_creative=KJtcufKUS887p24u6rjVIQ&utm_campaign=yelp_api_v3&utm_medium=api_v3_business_search&utm_source=KJtcufKUS887p24u6rjVIQ", "review_count": 1674, "categories": [{"alias": "seafood", "title": "Seafood"}], "rating": 4.0, "coordinates": {"latitude": 39.27093, "longitude": -76.59861}, "transactions": ["delivery"], "price": "$$", "location": {"address1": "1100 E Fort Ave", "address2": "", "address3": "", "city": "Baltimore", "zip_code": "21230", "country": "US", "state": "MD", "display_address": ["1100 E Fort Ave", "Baltimore, MD 21230"]}, "phone": "+14105769294", "display_phone": "(410) 576-9294", "distance": 2918.3157253958534}, {"id": "Kh1XJP54vra02w7vS5rRhg", "alias": "clock-restoration-baltimore", "name": "CLOCK Restoration", "image_url": "https://s3-media2.fl.yelpcdn.com/bphoto/Cquy0WVWW6b4-3TWXBppDQ/o.jpg", "is_closed": false, "url": "https://www.yelp.com/biz/clock-restoration-baltimore?adjust_creative=KJtcufKUS887p24u6rjVIQ&utm_campaign=yelp_api_v3&utm_medium=api_v3_business_search&utm_source=KJtcufKUS887p24u6rjVIQ", "review_count": 30, "categories": [{"alias": "cocktailbars", "title": "Cocktail Bars"}, {"alias": "speakeasies", "title": "Speakeasies"}, {"alias": "newamerican", "title": "American (New)"}], "rating": 5.0, "coordinates": {"latitude": 39.28807, "longitude": -76.61196}, "transactions": ["delivery", "pickup"], "location": {"address1": "31 S Calvert St", "address2": "Fl 5", "address3": "The QG", "city": "Baltimore", "zip_code": "21202", "country": "US", "state": "MD", "display_address": ["31 S Calvert St", "Fl 5", "The QG", "Baltimore, MD 21202"]}, "phone": "+14106857428", "display_phone": "(410) 685-7428", "distance": 975.3672545303132}, {"id": "ReNdW79g_1cxrgCJpFn7cA", "alias": "b-and-o-american-brasserie-baltimore", "name": "B&O American Brasserie", "image_url": "https://s3-media2.fl.yelpcdn.com/bphoto/STUupDhSp1i8JWXVrKjwtg/o.jpg", "is_closed": false, "url": "https://www.yelp.com/biz/b-and-o-american-brasserie-baltimore?adjust_creative=KJtcufKUS887p24u6rjVIQ&utm_campaign=yelp_api_v3&utm_medium=api_v3_business_search&utm_source=KJtcufKUS887p24u6rjVIQ", "review_count": 576, "categories": [{"alias": "newamerican", "title": "American (New)"}, {"alias": "brasseries", "title": "Brasseries"}, {"alias": "cocktailbars", "title": "Cocktail Bars"}], "rating": 4.0, "coordinates": {"latitude": 39.2899436853933, "longitude": -76.6153600656067}, "transactions": ["delivery", "pickup"], "price": "$$", "location": {"address1": "2 N Charles St", "address2": "", "address3": "", "city": "Baltimore", "zip_code": "21201", "country": "US", "state": "MD", "display_address": ["2 N Charles St", "Baltimore, MD 21201"]}, "phone": "+14436926172", "display_phone": "(443) 692-6172", "distance": 958.642226432693}, {"id": "t0EA_fXewpQWfzWMrpNjIw", "alias": "peters-pour-house-baltimore", "name": "Peter's Pour House", "image_url": "https://s3-media3.fl.yelpcdn.com/bphoto/A5kRmG6uiu3L1vStpcRK-g/o.jpg", "is_closed": false, "url": "https://www.yelp.com/biz/peters-pour-house-baltimore?adjust_creative=KJtcufKUS887p24u6rjVIQ&utm_campaign=yelp_api_v3&utm_medium=api_v3_business_search&utm_source=KJtcufKUS887p24u6rjVIQ", "review_count": 228, "categories": [{"alias": "tradamerican", "title": "American (Traditional)"}, {"alias": "pubs", "title": "Pubs"}], "rating": 4.0, "coordinates": {"latitude": 39.288481314045015, "longitude": -76.61303071251172}, "transactions": ["delivery", "pickup"], "price": "$$", "location": {"address1": "111 Mercer St", "address2": null, "address3": "", "city": "Baltimore", "zip_code": "21202", "country": "US", "state": "MD", "display_address": ["111 Mercer St", "Baltimore, MD 21202"]}, "phone": "+14105395818", "display_phone": "(410) 539-5818", "distance": 972.4361262580103}, {"id": "NQu0GgFMcAB6ucmhSNpcSQ", "alias": "phillips-seafood-baltimore", "name": "Phillips Seafood", "image_url": "https://s3-media3.fl.yelpcdn.com/bphoto/yZFOdQ7NxVT3DbYHWdZvMw/o.jpg", "is_closed": false, "url": "https://www.yelp.com/biz/phillips-seafood-baltimore?adjust_creative=KJtcufKUS887p24u6rjVIQ&utm_campaign=yelp_api_v3&utm_medium=api_v3_business_search&utm_source=KJtcufKUS887p24u6rjVIQ", "review_count": 1493, "categories": [{"alias": "seafood", "title": "Seafood"}, {"alias": "bars", "title": "Bars"}], "rating": 3.0, "coordinates": {"latitude": 39.286385925645, "longitude": -76.6073408694461}, "transactions": ["delivery", "pickup"], "price": "$$", "location": {"address1": "601 E Pratt St", "address2": "", "address3": "", "city": "Baltimore", "zip_code": "21202", "country": "US", "state": "MD", "display_address": ["601 E Pratt St", "Baltimore, MD 21202"]}, "phone": "+14106856600", "display_phone": "(410) 685-6600", "distance": 1089.215502481077}, {"id": "sUzGTfR81JKDBZlABjgtMQ", "alias": "masons-famous-lobster-rolls-baltimore-3", "name": "Mason's Famous Lobster Rolls", "image_url": "https://s3-media2.fl.yelpcdn.com/bphoto/639CWjK8ZLXlFlj0f6Lzpg/o.jpg", "is_closed": false, "url": "https://www.yelp.com/biz/masons-famous-lobster-rolls-baltimore-3?adjust_creative=KJtcufKUS887p24u6rjVIQ&utm_campaign=yelp_api_v3&utm_medium=api_v3_business_search&utm_source=KJtcufKUS887p24u6rjVIQ", "review_count": 171, "categories": [{"alias": "seafood", "title": "Seafood"}, {"alias": "salad", "title": "Salad"}, {"alias": "soup", "title": "Soup"}], "rating": 4.0, "coordinates": {"latitude": 39.28619, "longitude": -76.61099}, "transactions": ["delivery", "pickup"], "price": "$$", "location": {"address1": "201 E Pratt St", "address2": null, "address3": "", "city": "Baltimore", "zip_code": "21202", "country": "US", "state": "MD", "display_address": ["201 E Pratt St", "Baltimore, MD 21202"]}, "phone": "+14434539664", "display_phone": "(443) 453-9664", "distance": 1144.0157756250915}, {"id": "SyLoKmaYwq9xCYeI6S6A3g", "alias": "fishnet-baltimore-2", "name": "Fishnet", "image_url": "https://s3-media2.fl.yelpcdn.com/bphoto/B8vj_UVT3CXD4urYvSMAkA/o.jpg", "is_closed": false, "url": "https://www.yelp.com/biz/fishnet-baltimore-2?adjust_creative=KJtcufKUS887p24u6rjVIQ&utm_campaign=yelp_api_v3&utm_medium=api_v3_business_search&utm_source=KJtcufKUS887p24u6rjVIQ", "review_count": 56, "categories": [{"alias": "seafood", "title": "Seafood"}, {"alias": "sandwiches", "title": "Sandwiches"}, {"alias": "fishnchips", "title": "Fish & Chips"}], "rating": 4.0, "coordinates": {"latitude": 39.29584261917888, "longitude": -76.61843404731604}, "transactions": ["delivery", "pickup"], "price": "$$", "location": {"address1": "520 Park Ave", "address2": null, "address3": "", "city": "Baltimore", "zip_code": "21201", "country": "US", "state": "MD", "display_address": ["520 Park Ave", "Baltimore, MD 21201"]}, "phone": "+14438696399", "display_phone": "(443) 869-6399", "distance": 927.3610108468021}, {"id": "g428REEbAhb4Ngumk5bJ6g", "alias": "lexington-market-baltimore", "name": "Lexington Market", "image_url": "https://s3-media4.fl.yelpcdn.com/bphoto/jdx5vz6toA6izWRKFef38w/o.jpg", "is_closed": false, "url": "https://www.yelp.com/biz/lexington-market-baltimore?adjust_creative=KJtcufKUS887p24u6rjVIQ&utm_campaign=yelp_api_v3&utm_medium=api_v3_business_search&utm_source=KJtcufKUS887p24u6rjVIQ", "review_count": 356, "categories": [{"alias": "grocery", "title": "Grocery"}, {"alias": "seafoodmarkets", "title": "Seafood Markets"}, {"alias": "hotdogs", "title": "Fast Food"}], "rating": 3.5, "coordinates": {"latitude": 39.29198, "longitude": -76.622342}, "transactions": [], "price": "$", "location": {"address1": "400 W Lexington St", "address2": "", "address3": "", "city": "Baltimore", "zip_code": "21201", "country": "US", "state": "MD", "display_address": ["400 W Lexington St", "Baltimore, MD 21201"]}, "phone": "+14106856169", "display_phone": "(410) 685-6169", "distance": 1346.447302500918}, {"id": "sdNaP8ecfDXzoigTjO2oTg", "alias": "blue-moon-cafe-baltimore", "name": "Blue Moon Cafe", "image_url": "https://s3-media2.fl.yelpcdn.com/bphoto/ZNp-2NHkcm1k27C14naI0A/o.jpg", "is_closed": false, "url": "https://www.yelp.com/biz/blue-moon-cafe-baltimore?adjust_creative=KJtcufKUS887p24u6rjVIQ&utm_campaign=yelp_api_v3&utm_medium=api_v3_business_search&utm_source=KJtcufKUS887p24u6rjVIQ", "review_count": 2300, "categories": [{"alias": "breakfast_brunch", "title": "Breakfast & Brunch"}, {"alias": "tradamerican", "title": "American (Traditional)"}], "rating": 4.0, "coordinates": {"latitude": 39.283401121424866, "longitude": -76.59425446098962}, "transactions": ["delivery"], "price": "$$", "location": {"address1": "1621 Aliceanna St", "address2": "", "address3": "", "city": "Baltimore", "zip_code": "21231", "country": "US", "state": "MD", "display_address": ["1621 Aliceanna St", "Baltimore, MD 21231"]}, "phone": "+14105223940", "display_phone": "(410) 522-3940", "distance": 1830.4898120887003}, {"id": "O2ZrDUuqXoluq9cmrFhoyg", "alias": "mount-vernon-marketplace-baltimore-2", "name": "Mount Vernon Marketplace", "image_url": "https://s3-media4.fl.yelpcdn.com/bphoto/jlLM8HIUKnJUEE0rftugCw/o.jpg", "is_closed": false, "url": "https://www.yelp.com/biz/mount-vernon-marketplace-baltimore-2?adjust_creative=KJtcufKUS887p24u6rjVIQ&utm_campaign=yelp_api_v3&utm_medium=api_v3_business_search&utm_source=KJtcufKUS887p24u6rjVIQ", "review_count": 230, "categories": [{"alias": "food_court", "title": "Food Court"}], "rating": 4.5, "coordinates": {"latitude": 39.295902, "longitude": -76.618819}, "transactions": [], "price": "$$", "location": {"address1": "520 Park Ave", "address2": "", "address3": "", "city": "Baltimore", "zip_code": "21201", "country": "US", "state": "MD", "display_address": ["520 Park Ave", "Baltimore, MD 21201"]}, "phone": "+14437967393", "display_phone": "(443) 796-7393", "distance": 960.226707869424}], "total": 435, "region": {"center": {"longitude": -76.607666015625, "latitude": 39.29617825404647}}}